     2.11           OBSERVATION DATA    M (MIXED)           RINEX VERSION / TYPE
teqc  2016Apr1      bjfs                20240822 00:10:02UTCPGM / RUN BY / DATE
Linux 2.4.21-27.ELsmp|Opteron|gcc|Linux x86_64|=+           COMMENT
  0.0460      (antenna height)                              COMMENT
 +39.60859827 (latitude)                                    COMMENT
+115.89249399 (longitude)                                   COMMENT
0087.964      (elevation)                                   COMMENT
BIT 2 OF LLI FLAGS DATA COLLECTED UNDER A/S CONDITION       COMMENT
BJFS                                                        MARKER NAME
21601M001                                                   MARKER NUMBER
GNSS Observer       CASM                                    OBSERVER / AGENCY
5413K48204          TRIMBLE NETR9       5.45                REC # / TYPE / VERS
5317361110          TRM59900.00     SCIS                    ANT # / TYPE
 -2148744.7665  4426641.2673  4044655.8806                  APPROX POSITION XYZ
        0.0465        0.0000        0.0000                  ANTENNA: DELTA H/E/N
     1     1                                                WAVELENGTH FACT L1/2
     7    L1    L2    C1    P1    P2    S1    S2            # / TYPES OF OBSERV
    18                                                      LEAP SECONDS
 SNR is mapped to RINEX snr flag value [0-9]                COMMENT
  L1 & L2: min(max(int(snr_dBHz/6), 0), 9)                  COMMENT
  2024     8    21     0     0    0.0000000     GPS         TIME OF FIRST OBS
                                                            END OF HEADER
 24  8 21  0  0  0.0000000  0 19R16R02G11G17R01R17G20G09R15G05G04R24
                                G25R18G12G06R03G19G22
 120630640.365 6  93823848.770 6  22582317.781    22582317.578    22582326.789
        39.800          40.600
 107116108.661 8  83312614.734 7  20073495.992    20073495.066    20073503.133
        49.900          47.400
 112007008.467 7  87278199.20146  21314214.797                    21314222.508
        46.900          38.600
 118407907.762 6  92265896.08646  22532256.977                    22532267.453
        41.700          37.700
 110426337.001 7  85887213.158 6  20657522.961    20657521.945    20657531.234
        44.500          40.800
 106511803.435 8  82842353.174 7  19904225.570    19904224.988    19904231.629
        49.200          47.700
 113078919.175 7  88113447.15345  21518192.875                    21518201.480
        45.800          35.400
 117218461.470 6  91339164.98946  22305919.945                    22305931.066
        41.600          40.200
 122080502.189 6  94951527.026 6  22845718.883    22845718.629    22845728.879
        40.400          38.300
 126325082.960 6  98435175.42644  24038864.672                    24038876.125
        38.400          29.400
 124801101.253 6  97247565.37743  23748843.813                    23748856.375
        36.500          19.000
 113293039.279 7  88116913.389 7  21186339.836    21186340.219    21186348.789
        46.600          44.400
 124528751.444 6  97035386.00544  23697030.586                    23697043.281
        36.800          27.100
 119524247.351 6  92963333.483 6  22390921.227    22390921.555    22390930.945
        40.900          40.800
 117322943.823 7  91420457.50946  22325815.578                    22325824.633
        44.900          40.800
 109656510.459 7  85446700.15348  20866902.484                    20866912.309
        47.900          50.900
 123360360.017 6  95947015.028 6  23044744.805    23044744.293    23044756.559
        39.400          38.200
 108360105.561 7  84436515.97046  20620243.125                    20620249.727
        46.300          40.000
 131599132.154 5 102544894.41552  25042499.148                    25042512.059
        33.400          15.600
 24  8 21  0  0 30.0000000  0 19R16R02G11G17R01R17G20G09R15G05G04R24
                                G25R18G12G06R03G19G22
 120644885.285 6  93834928.076 6  22584985.242    22584984.027    22584993.648
        40.400          39.700
 107050927.978 8  83261918.684 7  20061281.500    20061280.090    20061288.367
        50.200          47.600
 111968444.964 7  87248149.71446  21306875.906                    21306884.047
        47.100          38.700
 118488223.123 6  92328479.33646  22547540.453                    22547551.039
        41.700          37.300
 110484245.637 7  85932253.170 6  20668355.398    20668355.211    20668364.422
        44.600          40.800
 106481271.336 8  82818605.985 7  19898520.211    19898519.355    19898525.945
        49.300          47.500
 113011945.105 7  88061259.60145  21505448.328                    21505456.750
        46.000          35.100
 117199224.268 7  91324174.99846  22302259.086                    22302270.445
        42.400          40.400
 122178227.294 6  95027535.301 6  22864007.734    22864006.926    22864017.082
        39.700          37.900
 126219585.844 6  98352969.96644  24018788.336                    24018800.496
        38.400          29.600
 124835562.115 6  97274417.99942  23755401.211                    23755413.188
        36.800          17.400
 113350188.390 7  88161362.606 7  21197027.898    21197027.641    21197036.051
        46.900          44.600
 124486435.594 6  97002412.56944  23688977.805                    23688991.020
        37.100          28.400
 119439732.914 6  92897600.083 6  22375088.836    22375088.703    22375098.219
        40.600          40.600
 117329197.328 7  91425330.31546  22327005.180                    22327014.602
        44.900          40.000
 109685242.435 7  85469088.66148  20872370.188                    20872379.930
        47.600          50.700
 123225657.528 6  95842246.578 6  23019581.320    23019580.668    23019592.934
        39.400          38.200
 108419704.109 7  84482956.32146  20631584.375                    20631591.023
        46.800          39.600
 131700434.899 5 102623831.39742  25061776.313                    25061789.777
        34.000          14.800
 24  8 21  0  1  0.0000000  0 19R16R02G11G17R01R17G20G09R15G05G04R24
                                G25R18G12G06R03G19G22
 120659867.680 6  93846580.971 6  22587789.664    22587788.867    22587798.262
        39.700          40.500
 106986458.131 8  83211775.514 8  20049200.289    20049198.527    20049206.688
        50.300          48.200
 111930093.162 7  87218265.20346  21299577.898                    21299585.949
        46.100          38.400
 118568819.294 6  92391281.39146  22562877.992                    22562888.121
        41.400          36.900
 110542877.499 7  85977855.671 6  20679324.977    20679323.715    20679332.617
        44.100          40.400
 106451001.662 8  82795062.897 7  19892863.742    19892862.734    19892869.395
        49.800          47.700
 112945317.285 7  88009341.85945  21492769.586                    21492777.711
        45.200          35.700
 117180552.966 6  91309625.96246  22298705.875                    22298717.426
        41.800          40.500
 122276257.772 6  95103781.069 6  22882351.477    22882352.160    22882362.516
        40.500          38.200
 126114262.311 6  98270899.76145  23998746.516                    23998758.059
        38.300          30.700
 124870555.666 6  97301685.66943  23762060.914                    23762072.359
        36.300          19.000
 113407607.819 7  88206022.053 7  21207765.414    21207765.262    21207773.691
        46.800          44.400
 124444665.786 6  96969864.62244  23681029.523                    23681042.367
        36.700          28.300
 119355237.540 6  92831881.499 6  22359260.484    22359259.395    22359269.215
        41.100          40.000
 117336064.568 7  91430681.36546  22328312.445                    22328321.539
        44.400          40.200
 109714181.891 8  85491638.83648  20877876.953                    20877886.945
        48.000          50.900
 123091072.181 6  95737569.237 6  22994438.648    22994438.973    22994451.199
        40.400          39.100
 108479762.489 7  84529754.98946  20643012.953                    20643019.598
        47.000          40.600
 131801663.86715 102702710.94352  25081039.461                    25081053.816
        32.800          15.600
 24  8 21  0  1 30.0000000  0 19R16R02G11G17R01R17G20G09R15G05G04R24
                                G25R18G12G06R03G19G22
 120675585.919 6  93858806.174 6  22590733.227    22590731.641    22590740.789
        39.900          40.200
 106922701.481 8  83162187.043 7  20037251.391    20037250.660    20037258.520
        50.000          47.900
 111891952.590 7  87188545.30246  21292320.031                    21292327.980
        46.600          38.700
 118649694.708 6  92454301.04346  22578267.820                    22578278.301
        41.600          36.500
 110602229.255 7  86024018.090 6  20690426.508    20690426.590    20690435.621
        44.700          40.500
 106420994.872 8  82771724.278 7  19887255.680    19887255.367    19887261.898
        49.400          47.600
 112879035.616 7  87957693.85145  21480156.344                    21480164.914
        45.500          35.400
 117162448.149 7  91295518.34346  22295260.523                    22295271.977
        42.700          40.400
 122374588.192 6  95180260.139 6  22900754.383    22900753.617    22900764.102
        39.900          38.400
 126009113.411 6  98188965.63645  23978737.289                    23978748.582
        38.500          30.200
 124906080.333 6  97329367.24142  23768820.047                    23768832.793
        36.900          17.400
 113465297.185 7  88250891.455 7  21218553.555    21218553.680    21218562.121
        46.700          44.200
 124403442.750 5  96937742.73944  23673184.781                    23673197.609
        35.500          26.500
 119270761.544 6  92766178.025 6  22343435.125    22343434.469    22343443.758
        41.400          39.600
 117343544.687 7  91436509.97546  22329735.781                    22329744.895
        43.700          39.800
 109743327.993 7  85514350.03948  20883423.586                    20883433.352
        47.700          50.500
 122956607.249 6  95632985.568 6  22969319.914    22969319.551    22969331.742
        40.000          38.600
 108540278.994 7  84576910.63446  20654529.391                    20654535.684
        46.700          39.700
 131902816.065 5 102781530.68342  25100289.594                    25100302.977
        34.300          17.400
 24  8 21  0  2  0.0000000  0 19R16R02G11G17R01R17G20G09R15G05G04R24
                                G25R18G12G06R03G19G22
 120692038.691 6  93871602.701 6  22593812.875    22593811.113    22593820.566
        40.000          39.800
 106859661.383 8  83113155.896 8  20025438.047    20025436.906    20025444.809
        50.600          48.300
 111854023.781 7  87158990.39746  21285102.367                    21285110.352
        47.500          39.200
 118730848.809 6  92517537.85446  22593710.570                    22593721.742
        41.300          36.700
 110662298.142 7  86070738.302 6  20701664.352    20701663.660    20701672.742
        44.500          41.200
 106391253.261 8  82748591.901 8  19881698.109    19881697.242    19881703.965
        48.900          48.300
 112813101.099 7  87906316.31745  21467609.570                    21467617.719
        45.500          35.800
 117144911.269 7  91281853.27146  22291923.273                    22291935.121
        42.200          41.100
 122473214.302 6  95256969.174 6  22919211.063    22919209.938    22919220.938
        39.900          38.700
 125904140.612 6  98107168.75745  23958761.648                    23958773.227
        38.300          31.600
 124942135.480 6  97357462.16543  23775681.039                    23775693.957
        36.800          18.600
 113523257.283 7  88295971.421 7  21229392.766    21229392.453    21229401.152
        46.600          44.000
 124362767.835 5  96906047.95544  23665444.766                    23665458.117
        35.600          28.200
 119186306.104 6  92700490.523 6  22327614.844    22327612.895    22327622.355
        41.000          40.000
 117351636.579 7  91442815.28746  22331275.898                    22331284.770
        43.900          40.600
 109772680.800 7  85537222.31148  20889009.156                    20889018.980
        47.300          50.800
 122822267.437 6  95528499.200 6  22944224.586    22944223.574    22944235.891
        40.400          39.500
 108601253.235 7  84624422.95746  20666132.070                    20666138.797
        46.600          40.000
 132003889.287 5 102860288.91642  25119521.922                    25119536.426
        32.500          16.900
 24  8 21  0  2 30.0000000  0 19R16R02G11G17R01R17G20G09R15G05G04R24
                                G25R18G12G06R03G19G22
 120709224.142 6  93884969.048 6  22597029.156    22597028.621    22597038.059
        39.600          39.400
 106797340.313 8  83064684.008 8  20013759.289    20013758.086    20013765.801
        50.500          48.300
 111816306.501 7  87129600.32646  21277925.023                    21277933.055
        46.400          38.600
 118812280.055 6  92580990.62146  22609207.195                    22609217.285
        41.900          36.200
 110723080.840 7  86118013.676 6  20713035.250    20713034.410    20713043.547
        44.600          40.600
 106361777.504 8  82725666.304 7  19876189.625    19876188.930    19876195.648
        49.200          47.400
 112747514.447 7  87855209.84845  21455128.867                    21455136.723
        46.000          35.000
 117127943.153 7  91268631.38846  22288694.773                    22288706.160
        42.900          40.200
 122572131.640 6  95333904.715 6  22937721.719    22937721.293    22937732.145
        40.100          38.700
 125799345.092 6  98025510.01445  23938819.414                    23938831.273
        38.700          30.900
 124978719.764 6  97385969.40042  23782643.398                    23782655.316
        36.400          17.800
 113581487.932 7  88341261.820 7  21240281.891    21240281.930    21240290.516
        46.700          44.600
 124322642.067 6  96874781.08244  23657808.969                    23657821.941
        36.400          27.300
 119101871.628 6  92634819.335 6  22311796.734    22311795.535    22311804.832
        41.900          39.300
 117360339.857 7  91449597.02146  22332931.555                    22332940.773
        44.700          39.400
 109802239.621 7  85560255.10348  20894633.750                    20894643.938
        47.300          50.200
 122688055.694 6  95424112.439 6  22919152.438    22919151.871    22919163.738
        40.300          38.700
 108662684.098 7  84672291.08446  20677822.047                    20677828.949
        46.400          39.200
 132104880.871 5 102938983.43142  25138740.500                    25138754.441
        33.900          13.900
 24  8 21  0  3  0.0000000  0 19R16R02G11G17R01R17G20G09R15G05G04R24
                                G25R18G12G06R03G19G22
 120727140.805 6  93898904.156 6  22600382.977    22600382.758    22600391.820
        40.100          39.800
 106735740.820 8  83016773.324 8  20002215.117    20002214.328    20002222.199
        50.000          48.200
 111778801.272 7  87100375.49746  21270788.117                    21270796.102
        46.800          39.000
 118893987.686 6  92644658.74346  22624755.539                    22624766.090
        41.400          37.100
 110784574.840 7  86165842.308 6  20724538.625    20724538.520    20724547.211
        44.600          39.800
 106332569.651 8  82702949.072 8  19870731.813    19870730.742    19870737.637
        49.300          48.100
 112682276.409 7  87804375.03445  21442714.180                    21442722.480
        45.600          35.500
 117111545.226 7  91255853.80746  22285573.523                    22285585.531
        42.900          40.800
 122671335.577 6  95411063.185 6  22956286.789    22956286.242    22956296.969
        40.300          38.600
 125694729.481 6  97943991.46245  23918912.148                    23918923.430
        38.000          30.800
 125015832.581 6  97414888.47942  23789705.273                    23789717.715
        36.100          17.400
 113639989.738 7  88386763.100 7  21251222.297    21251222.375    21251230.883
        46.100          44.200
 124283066.763 6  96843943.14844  23650278.227                    23650291.074
        36.000          28.000
 119017459.290 7  92569165.354 6  22295982.906    22295982.520    22295991.699
        42.200          39.800
 117369653.763 7  91456854.56046  22334704.273                    22334713.434
        44.300          40.200
 109832004.592 7  85583448.53848  20900297.820                    20900308.023
        47.900          50.600
 122553976.842 6  95319829.017 6  22894106.328    22894104.711    22894116.641
        40.200          39.700
 108724571.240 7  84720514.75546  20689599.133                    20689605.668
        46.400          40.000
 132205788.530 5 103017612.61142  25157942.320                    25157956.504
        33.500          13.900
 24  8 21  0  3 30.0000000  0 19R16R02G11G17R01R17G20G09R15G05G04R24
                                G25R18G12G06R03G19G22
 120745787.228 6  93913406.850 6  22603874.094    22603873.781    22603883.082
        40.300          39.300
 106674865.502 8  82969425.887 7  19990806.969    19990806.234    19990814.082
        49.900          47.600
 111741508.025 7  87071315.84646  21263691.336                    21263699.395
        47.200          38.300
 118975970.630 7  92708541.40346  22640356.539                    22640367.168
        42.400          36.900
 110846776.635 7  86214221.418 6  20736174.734    20736174.441    20736183.320
        44.700          39.600
 106303630.815 8  82680441.065 8  19865323.625    19865323.086    19865329.781
        48.800          48.100
 112617387.322 7  87753812.15145  21430366.523                    21430374.414
        46.000          35.500
 117095718.373 6  91243521.22046  22282562.188                    22282573.879
        41.500          40.400
 122770821.455 6  95488440.940 6  22974904.203    22974903.602    22974914.676
        39.800          37.900
 125590294.859 6  97862613.95645  23899038.203                    23899049.938
        38.700          30.900
 125053472.573 6  97444218.31043  23796868.320                    23796880.195
        36.600          19.000
 113698762.936 7  88432475.477 7  21262213.219    21262213.195    21262221.770
        45.800          43.900
 124244042.846 6  96813534.87244  23642852.500                    23642864.891
        36.400          27.300
 118933069.806 7  92503529.159 6  22280174.328    22280173.363    22280182.773
        42.400          40.500
 117379577.130 7  91464587.01046  22336592.188                    22336601.574
        44.800          38.800
 109861975.211 7  85606802.22648  20906001.328                    20906011.266
        47.000          49.900
 122420034.134 6  95215651.522 6  22869083.070    22869082.961    22869094.746
        40.300          38.600
 108786913.200 7  84769092.81846  20701462.422                    20701468.805
        46.300          38.600
 132306609.874 5 103096174.62342  25177128.188                    25177142.375
        33.700          13.900
 24  8 21  0  4  0.0000000  0 19R16R02G11G17R01R17G20G09R15G05G04R24
                                G25R18G12G06R03G19G22
 120765161.979 6  93928475.956 6  22607500.906    22607500.789    22607509.789
        40.900          39.400
 106614717.584 8  82922644.209 8  19979535.211    19979534.668    19979542.383
        50.300          48.600
 111704427.291 7  87042421.79446  21256635.148                    21256643.094
        47.200          39.200
 119058227.844 7  92772637.76146  22656009.969                    22656020.414
        42.200          37.200
 110909683.818 7  86263149.175 6  20747943.563    20747942.285    20747951.586
        44.500          40.900
 106274962.904 8  82658143.786 7  19859966.555    19859965.563    19859972.480
        49.300          47.800
 112552848.118 7  87703521.88445  21418084.805                    21418093.082
        45.900          35.900
 117080464.009 7  91231634.72846  22279659.305                    22279671.008
        42.800          41.100
 122870584.999 6  95566034.640 6  22993573.672    22993573.117    22993584.105
        39.700          38.000
 125486042.494 6  97781378.46645  23879199.594                    23879211.105
        38.300          30.900
 125091639.047 6  97473958.47143  23804131.289                    23804142.926
        36.900          19.300
 113757808.002 7  88478399.319 7  21273255.383    21273254.867    21273263.789
        45.800          44.500
 124205571.760 6  96783557.34944  23635531.555                    23635544.352
        37.200          27.800
 118848704.279 7  92437911.569 6  22264368.656    22264368.988    22264378.508
        42.500          41.400
 117390109.441 7  91472793.95246  22338596.852                    22338605.809
        44.900          39.900
 109892151.578 7  85630316.22448  20911743.734                    20911753.793
        47.400          50.500
 122286231.997 6  95111583.361 6  22844087.789    22844087.777    22844099.316
        40.100          40.700
 108849709.555 7  84818024.96646  20713412.000                    20713418.707
        47.200          39.400
 132407342.759 5 103174667.72442  25196297.148                    25196310.734
        33.700          13.900
 24  8 21  0  4 30.0000000  0 19R16R02G11G17R01R17G20G09R15G05G04R24
                                G25R18G12G06R03G19G22
 120785263.475 6  93944110.349 6  22611264.445    22611263.758    22611273.203
        40.300          39.600
 106555299.309 8  82876430.020 7  19968400.984    19968399.395    19968407.449
        50.300          47.900
 111667559.091 7  87013693.34346  21249619.273                    21249627.457
        47.000          38.600
 119140758.008 6  92836946.82045  22671714.805                    22671725.551
        41.800          35.900
 110973293.178 7  86312623.071 6  20759842.211    20759842.051    20759851.070
        44.200          39.700
 106246567.237 8  82636058.250 7  19854660.469    19854659.066    19854666.020
        48.900          47.600
 112488659.477 7  87653504.80245  21405870.039                    21405878.355
        45.700          35.500
 117065783.042 7  91220195.04246  22276865.531                    22276877.184
        42.100          40.500
 122970621.601 6  95643840.767 6  23012293.531    23012293.801    23012304.539
        39.900          36.500
 125381974.697 6  97700286.79245  23859396.859                    23859407.750
        39.500          31.800
 125130330.847 6  97504107.91743  23811493.328                    23811506.078
        36.400          20.100
 113817125.284 7  88524534.862 7  21284348.180    21284347.766    21284356.418
        45.300          44.000
 124167654.448 6  96754011.31144  23628316.406                    23628328.859
        36.400          26.700
 118764363.651 7  92372313.349 6  22248569.430    22248569.203    22248578.758
        42.300          40.900
 117401250.042 7  91481474.89346  22340716.781                    22340726.012
        44.600          39.000
 109922533.321 7  85653990.25948  20917525.055                    20917535.168
        47.100          49.800
 122152573.955 6  95007627.258 6  22819119.406    22819118.809    22819130.496
        40.200          38.900
 108912959.613 7  84867310.64746  20725448.273                    20725454.969
        46.300          38.400
 132507984.621 5 103253089.89242  25215448.789                    25215462.418
        33.200          14.800
 24  8 21  0  5  0.0000000  0 19R16R02G11G17R01R17G20G09R15G05G04R24
                                G25R18G12G06R03G19G22
 120806089.563 6  93960308.326 6  22615163.047    22615162.840    22615172.035
        39.900          40.200
 106496613.262 8  82830785.354 8  19957402.500    19957401.652    19957409.547
        50.400          48.300
 111630903.581 7  86985130.62546  21242643.867                    21242651.934
        47.300          38.800
 119223560.279 7  92901467.92346  22687471.836                    22687482.449
        42.100          36.800
 111037601.431 7  86362640.554 6  20771873.672    20771872.465    20771881.273
        43.700          40.300
 106218445.145 8  82614185.515 8  19849405.211    19849403.828    19849410.711
        49.500          48.400
 112424821.858 7  87603761.24845  21393722.688                    21393730.379
        45.900          35.400
 117051676.367 7  91209202.85846  22274181.328                    22274192.785
        42.200          41.100
 123070926.729 6  95721855.687 6  23031064.234    23031064.297    23031075.391
        40.000          37.600
 125278092.730 6  97619339.92245  23839628.023                    23839639.516
        38.700          31.700
 125169546.783 6  97534665.77243  23818956.078                    23818968.949
        36.400          20.400
 113876714.505 7  88570881.933 7  21295492.094    21295491.598    21295500.055
        45.800          44.000
 124130291.920 6  96724897.62544  23621206.320                    23621219.102
        36.700          28.000
 118680048.604 6  92306735.053 6  22232774.375    22232773.957    22232783.461
        41.800          40.200
 117412997.808 7  91490628.92846  22342952.328                    22342961.594
        45.200          39.900
 109953120.069 7  85677824.03348  20923345.883                    20923355.789
        47.600          50.300
 122019064.304 6  94903786.554 6  22794178.719    22794178.125    22794189.617
        40.900          39.400
 108976662.215 7  84916948.95046  20737570.313                    20737577.199
        46.400          39.400
 132608533.388 5 103331439.46842  25234582.016                    25234596.031
        34.100          13.900
 24  8 21  0  5 30.0000000  0 19R16R02G11G17R01R17G20G09R15G05G04R24
                                G25R18G12G06R03G19G22
 120827639.182 6  93977069.010 6  22619196.992    22619196.594    22619206.141
        39.800          38.300
 106438662.376 8  82785712.477 7  19946542.672    19946541.684    19946549.566
        50.300          47.400
 111594461.104 7  86956733.90946  21235709.102                    21235717.219
        46.500          38.300
 119306633.672 6  92966200.29145  22703279.813                    22703290.961
        41.700          35.200
 111102605.607 7  86413199.292 6  20784034.266    20784032.512    20784041.902
        44.000          38.500
 106190598.544 8  82592527.030 7  19844200.930    19844200.137    19844206.902
        49.400          47.200
 112361336.119 7  87554291.90145  21381641.656                    21381649.398
        45.700          34.600
 117038145.278 7  91198659.19246  22271606.594                    22271617.922
        42.200          40.200
 123171495.917 6  95800076.013 5  23049884.914    23049884.777    23049895.375
        39.700          35.900
 125174398.287 6  97538539.16745  23819895.180                    23819907.266
        38.100          30.900
 125209285.957 6  97565631.38943  23826518.180                    23826531.059
        37.200          20.900
 113936576.732 7  88617441.338 7  21306685.922    21306685.824    21306694.570
        45.700          43.300
 124093485.400 6  96696217.16144  23614201.992                    23614214.848
        37.500          26.400
 118595760.245 7  92241177.499 6  22216985.000    22216983.699    22216993.242
        42.500          39.800
 117425351.943 7  91500255.45846  22345303.297                    22345312.535
        44.700          38.600
 109983911.812 7  85701817.55348  20929205.563                    20929215.191
        47.200          49.000
 121885706.778 6  94800064.165 6  22769265.789    22769265.633    22769276.984
        40.200          39.100
 109040816.559 7  84966939.26746  20749778.617                    20749785.445
        46.600          37.900
 132708986.674 5 103409714.71942  25253697.164                    25253712.461
        34.000          14.800
 24  8 21  0  6  0.0000000  0 19R16R02G11G17R01R17G20G09R15G05G04R24
                                G25R18G12G06R03G19G22
 120849910.148 6  93994390.728 6  22623366.508    22623366.500    22623375.824
        40.500          40.500
 106381448.940 8  82741213.175 8  19935820.695    19935819.953    19935827.844
        49.900          48.600
 111558231.611 7  86928503.14346  21228814.664                    21228822.871
        46.800          38.900
 119389976.746 7  93031142.78846  22719140.000                    22719150.668
        42.200          36.300
 111168302.416 7  86464296.766 6  20796323.766    20796322.574    20796331.820
        43.900          40.000
 106163028.350 8  82571083.539 7  19839048.289    19839047.797    19839054.738
        48.900          47.500
 112298202.512 7  87505096.93746  21369627.328                    21369635.504
        45.800          36.600
 117025190.468 7  91188564.55646  22269141.055                    22269152.723
        42.600          41.600
 123272324.637 6  95878498.211 6  23068754.703    23068753.848    23068764.246
        39.200          36.700
 125070892.835 6  97457885.68745  23800199.477                    23800210.719
        38.400          31.900
 125249547.009 6  97597003.65243  23834179.500                    23834192.426
        36.700          20.600
 113996711.655 7  88664212.839 7  21317931.852    21317931.887    21317940.262
        45.200          44.000
 124057235.677 6  96667970.56344  23607304.680                    23607316.887
        37.300          27.900
 118511499.373 7  92175641.318 6  22201199.469    22201199.074    22201208.215
        42.500          40.500
 117438311.159 7  91510353.47546  22347769.602                    22347778.535
        45.400          40.400
 110014908.104 7  85725970.45648  20935103.711                    20935113.832
        47.600          50.300
 121752505.066 6  94696463.050 6  22744382.633    22744382.355    22744393.840
        40.000          40.700
 109105421.513 7  85017280.70646  20762072.625                    20762079.441
        46.800          39.000
 132809341.648 5 103487913.27242  25272795.188                    25272809.688
        33.800          15.600
 24  8 21  0  6 30.0000000  0 19R16R02G11G17R01R17G20G09R15G05G04R24
                                G25R18G12G06R03G19G22
 120872900.707 6  94012272.160 6  22627670.852    22627669.988    22627679.707
        39.800          39.100
 106324975.302 8  82697289.276 7  19925237.781    19925236.684    19925244.645
        49.900          47.000
 111522215.539 7  86900438.68046  21221961.523                    21221969.277
        47.100          37.400
 119473588.553 6  93096294.68745  22735050.836                    22735061.594
        41.500          35.700
 111234688.827 7  86515930.590 6  20808742.352    20808741.766    20808750.691
        43.800          38.400
 106135736.690 8  82549856.694 7  19833949.359    19833947.660    19833954.625
        48.900          46.500
 112235421.777 7  87456176.93245  21357680.711                    21357688.797
        46.000          34.900
 117012813.017 7  91178919.82146  22266785.930                    22266797.285
        43.600          40.500
 123373408.106 6  95957118.498 5  23087669.563    23087669.602    23087680.660
        39.900          34.700
 124967578.440 6  97377381.07245  23780538.898                    23780550.359
        38.600          31.000
 125290328.945 6  97628781.78643  23841940.773                    23841952.805
        37.100          19.600
 114057120.026 7  88711197.024 7  21329228.664    21329228.387    21329237.207
        45.600          42.600
 124021543.980 6  96640158.81244  23600512.156                    23600525.137
        37.100          27.200
 118427267.077 7  92110127.362 6  22185419.484    22185418.766    22185428.590
        42.100          39.400
 117451875.033 7  91520922.65346  22350351.008                    22350359.844
        45.000          38.500
 110046108.899 7  85750282.71248  20941040.773                    20941051.074
        47.800          48.700
 121619463.316 6  94592986.326 6  22719530.141    22719528.711    22719540.168
        40.100          39.300
 109170476.504 7  85067972.82246  20774452.266                    20774458.938
        47.100          37.100
 132909596.534 5 103566033.87152  25291872.773                    25291887.797
        33.900          15.600
 24  8 21  0  7  0.0000000  0 19R16R02G11G17R01R17G20G09R15G05G04R24
                                G25R18G12G06R03G19G22
 120896609.359 6  94030712.125 6  22632109.125    22632108.547    22632118.359
        39.400          40.800
 106269244.364 8  82653943.026 8  19914793.563    19914792.699    19914800.613
        50.200          48.300
 111486413.196 7  86872540.76546  21215148.195                    21215156.172
        47.300          39.400
 119557468.120 6  93161655.24746  22751012.883                    22751023.746
        41.400          36.700
 111301761.829 7  86568098.417 6  20821290.094    20821289.195    20821298.078
        43.400          40.200
 106108725.115 8  82528847.668 7  19828900.859    19828900.199    19828907.012
        49.200          47.800
 112172994.935 7  87407532.69346  21345801.148                    21345809.164
        45.600          36.700
 117001014.075 7  91169725.87446  22264540.492                    22264552.191
        42.200          41.900
 123474742.352 6  96035933.872 6  23106633.773    23106633.336    23106644.258
        39.600          36.500
 124864456.414 6  97297026.33145  23760914.734                    23760926.664
        37.700          31.800
 125331630.724 6  97660964.96243  23849799.922                    23849812.059
        37.200          20.600
 114117801.875 7  88758393.893 7  21340576.375    21340576.324    21340585.047
        45.600          43.200
 123986411.278 5  96612782.64444  23593827.305                    23593839.207
        35.900          27.400
 118343064.332 7  92044636.393 6  22169646.742    22169645.027    22169654.391
        42.300          40.600
 117466042.313 7  91531962.01746  22353046.883                    22353055.906
        43.900          39.900
 110077514.131 7  85774754.26748  20947017.391                    20947027.316
        47.000          50.200
 121486585.781 6  94489637.365 6  22694706.813    22694705.984    22694717.406
        40.400          39.900
 109235980.505 7  85119014.81546  20786917.359                    20786924.090
        47.700          39.500
 133009749.066 5                  25310931.594
        33.300
 24  8 21  0  7 30.0000000  0 19R16R02G11G17R01R17G20G09R15G05G04R24
                                G25R18G12G06R03G19G22
 120921034.186 6  94049709.101 6  22636682.203    22636680.598    22636690.496
        40.300          38.500
 106214258.233 8  82611176.078 7  19904488.688    19904488.082    19904496.184
        50.800          46.800
 111450824.694 7  86844809.47746  21208375.945                    21208383.980
        47.200          37.400
 119641614.454 6  93227223.66945  22767025.430                    22767036.375
        41.600          34.700
 111369518.122 7  86620797.701 6  20833964.328    20833964.230    20833973.406
        43.000          38.600
 106081994.898 8  82508057.490 7  19823905.570    19823904.988    19823911.695
        49.100          46.000
 112110922.402 7  87359164.52745  21333988.992                    21333997.152
        45.800          34.900
 116989794.382 7  91160983.27446  22262405.359                    22262417.148
        43.600          39.900
 123576322.344 6  96114940.362 5  23125643.656    23125643.328    23125653.918
        38.900          34.100
 124761528.235 6  97216822.65544  23741327.758                    23741340.238
        37.900          29.900
 125373451.128 6  97693552.29143  23857758.375                    23857770.301
        36.900          19.900
 114178757.550 7  88805803.762 6  21351975.977    21351975.359    21351984.039
        45.700          41.900
 123951838.568 6  96585842.83244  23587248.102                    23587260.578
        36.000          25.200
 118258892.095 7  91979169.155 6  22153877.398    22153877.070    22153885.988
        43.100          38.600
 117480812.256 7  91543470.99546  22355858.180                    22355866.637
        44.000          38.400
 110109123.436 7  85799384.84648  20953032.156                    20953042.383
        47.300          48.200
 121353876.161 6  94386419.027 6  22669915.406    22669914.352    22669925.879
        39.900          38.700
 109301932.680 7  85170406.03846  20799467.133                    20799474.344
        46.900          37.000
 133109796.808 5 103722053.83652  25329969.688                    25329985.453
        34.800          15.600
 24  8 21  0  8  0.0000000  0 19R16R02G11G17R01R17G20G09R15G05G04R24
                                G25R18G12G06R03G19G22
 120946172.820 6  94069261.316 6  22641387.836    22641386.809    22641396.766
        40.300          40.400
 106160019.069 8  82568990.111 8  19894324.617    19894323.816    19894331.766
        50.300          48.800
 111415450.041 7  86817244.82146  21201644.469                    21201652.398
        47.500          39.200
 119726025.800 6  93292998.60146  22783088.523                    22783099.266
        41.500          36.200
 111437954.231 7  86674025.738 6  20846767.547    20846766.707    20846775.797
        43.200          39.400
 106055547.279 8  82487487.117 8  19818963.516    19818962.629    19818969.363
        49.300          48.200
 112049204.305 7  87311072.55646  21322244.180                    21322252.617
        45.600          37.300
 116979154.665 7  91152692.61247  22260380.391                    22260392.340
        42.600          42.100
 123678143.948 6  96194134.796 6  23144698.016    23144697.508    23144708.285
        38.400          36.400
 124658795.230 6  97136771.05045  23721779.086                    23721790.465
        37.900          31.800
 125415788.715 6  97726542.64743  23865814.422                    23865826.852
        37.300          20.100
 114239987.105 7  88853426.636 7  21363426.063    21363425.500    21363434.574
        45.300          43.400
 123917826.477 5  96559339.86244  23580775.164                    23580788.035
        35.500          28.700
 118174751.312 7  91913726.390 6  22138115.680    22138114.688    22138123.363
        42.800          40.400
 117496183.545 7  91555448.56246  22358782.898                    22358791.605
        43.900          40.100
 110140936.480 7  85824174.19348  20959085.906                    20959096.254
        47.300          50.000
 121221338.132 6  94283334.158 6  22645155.648    22645155.145    22645166.508
        39.400          41.000
 109368331.767 7  85222145.50346  20812102.688                    20812109.750
        47.300          39.000
 133209737.232 5 103799929.35642  25348988.797                    25349003.047
        33.200          13.900
 24  8 21  0  8 30.0000000  0 19R16R02G11G17R01R17G20G09R15G05G04R24
                                G25R18G12G06R03G19G22
 120972023.626 6  94089367.385 6  22646226.359    22646226.379    22646236.227
        39.600          39.100
 106106529.228 8  82527386.942 7  19884300.484    19884299.852    19884307.590
        50.400          46.600
 111380289.446 7  86789846.94946  21194953.438                    21194961.563
        47.500          37.800
 119810701.291 6  93358979.34945  22799201.375                    22799212.918
        40.600          34.300
 111507066.569 7  86727779.731 6  20859696.633    20859695.738    20859704.711
        43.400          38.400
 106029384.164 8  82467138.016 7  19814075.047    19814073.520    19814080.230
        49.200          46.400
 111987841.459 7  87263257.40745  21310567.461                    21310575.371
        45.500          35.500
 116969095.751 7  91144854.51146  22258466.289                    22258478.148
        43.300          40.300
 123780202.273 6  96273513.308 5  23163796.867    23163796.871    23163807.773
        38.700          35.400
 124556259.041 6  97056872.80944  23702266.844                    23702278.230
        37.600          29.500
 125458642.233 6  97759934.97143  23873969.023                    23873981.473
        36.900          19.600
 114301490.677 7  88901262.638 6  21374928.266    21374927.238    21374936.047
        45.900          41.700
 123884375.855 5  96533274.42044  23574410.266                    23574422.738
        35.500          25.900
 118090642.566 7  91848308.558 6  22122358.359    22122357.992    22122367.137
        43.000          39.500
 117512154.845 7  91567893.66046  22361821.961                    22361831.043
        43.800          38.700
 110172952.957 7  85849122.05248  20965178.484                    20965189.039
        47.300          48.300
 121088975.676 6  94180385.864 6  22620427.977    22620428.480    22620439.684
        39.600          40.100
 109435176.690 7  85274232.37546  20824823.320                    20824830.102
        47.500          37.000
 133309568.27015                  25367985.945
        32.000
 24  8 21  0  9  0.0000000  0 19R16R02G11G17R01R17G20G09R15G05G04R24
                                G25R18G12G06R03G19G22
 120998584.303 6  94110025.546 6  22651199.555    22651198.543    22651208.320
        39.200          40.200
 106053791.283 8  82486368.591 8  19874417.227    19874416.773    19874424.664
        49.900          48.600
 111345342.975 7  86762615.93246  21188303.391                    21188311.578
        47.500          39.600
 119895639.590 6  93425164.89246  22815365.047                    22815375.945
        40.100          36.200
 111576852.368 7  86782057.522 6  20872751.453    20872750.625    20872759.695
        43.000          40.000
 106003506.666 8  82447011.065 7  19809238.375    19809237.621    19809244.457
        49.300          47.800
 111926834.195 7  87215719.33746  21298957.977                    21298966.336
        46.000          37.700
 116959618.285 7  91137469.49447  22256662.625                    22256674.637
        43.500          42.100
 123882492.529 6  96353072.237 5  23182939.477    23182938.707    23182950.012
        38.300          35.800
 124453921.544 6  96977129.39445  23682792.594                    23682803.840
        38.400          32.200
 125502010.344 6  97793728.28043  23882222.516                    23882234.285
        37.100          20.100
 114363268.511 7  88949311.990 7  21386480.516    21386480.426    21386489.066
        45.600          43.100
 123851487.637 6  96507647.19344  23568151.828                    23568164.352
        36.000          27.900
 118006566.922 7  91782916.443 6  22106608.477    22106607.859    22106616.730
        42.900          41.000
 117528725.344 7  91580805.66746  22364975.313                    22364984.336
        44.300          39.800
 110205172.606 7  85874228.22048  20971309.852                    20971320.254
        47.200          49.900
 120956792.377 6  94077576.952 6  22595736.469    22595735.051    22595746.621
        39.800          41.100
 109502466.415 7  85326665.84646  20837628.188                    20837635.023
        47.000          38.600
 133409287.32915                  25386961.492
        30.300
 24  8 21  0  9 30.0000000  0 19R16R02G11G17R01R17G20G09R15G05G04R24
                                G25R18G12G06R03G19G22
 121025853.219 6  94131234.621 6  22656303.734    22656303.441    22656313.102
        39.700          38.200
 106001807.320 8  82445936.667 7  19864675.813    19864674.973    19864682.738
        50.300          47.000
 111310611.312 7  86735552.30046  21181694.461                    21181702.297
        47.300          37.300
 119980839.589 6  93491554.34045  22831577.922                    22831589.113
        40.200          34.000
 111647308.137 7  86836856.391 6  20885931.148    20885931.008    20885940.047
        43.000          38.100
 105977916.828 8  82427107.845 7  19804456.141    19804455.527    19804462.363
        49.100          47.300
 111866183.145 7  87168458.82445  21287416.586                    21287424.598
        46.200          35.900
 116950723.537 7  91130538.53146  22254970.984                    22254981.906
        43.700          39.900
 123985010.794 6  96432808.521 5  23202124.891    23202124.074    23202134.863
        38.100          34.400
 124351784.289 6  96897542.00745  23663356.242                    23663367.801
        38.000          30.400
 125545892.180 6  97827921.94443  23890572.258                    23890584.832
        36.600          18.300
 114425321.259 7  88997575.109 6  21398083.961    21398084.262    21398093.270
        45.000          41.800
 123819162.841 5  96482458.98544  23562001.219                    23562012.953
        35.700          25.300
 117922525.910 7  91717551.251 6  22090864.164    22090864.188    22090873.293
        44.400          39.800
 117545894.185 7  91594183.90946  22368242.367                    22368251.477
        44.100          38.300
 110237595.610 7  85899492.85548  20977479.703                    20977490.109
        47.600          48.200
 120824792.691 6  93974910.805 6  22571076.727    22571076.250    22571087.504
        40.100          39.300
 109570200.133 7  85379445.29246  20850517.742                    20850524.641
        47.200          37.300
 133508892.45615                  25405916.336
        31.000
 24  8 21  0 10  0.0000000  0 19R16R02G11G17R01R17G20G09R15G05G04R24
                                G25R18G12G06R03G19G22
 121053828.052 6  94152992.744 6  22661541.141    22661540.500    22661550.199
        40.300          39.000
 105950579.304 8  82406092.698 8  19855076.000    19855074.813    19855082.633
        50.000          48.200
 111276094.188 7  86708655.85646  21175125.953                    21175133.727
        46.600          38.600
 120066300.123 6  93558146.82545  22847840.758                    22847852.094
        40.500          35.200
 111718430.222 7  86892173.502 6  20899236.922    20899235.609    20899244.980
        43.200          38.800
 105952615.717 8  82407429.189 8  19799728.336    19799727.375    19799734.270
        49.200          48.200
 111805888.663 7  87121476.14146  21275942.992                    21275950.820
        45.900          37.100
 116942411.786 7  91124061.86246  22253388.547                    22253400.238
        43.400          41.100
 124087752.103 6  96512718.276 5  23221351.219    23221350.582    23221361.898
        37.900          35.800
 124249848.293 6  96818111.42445  23643958.898                    23643970.230
        38.300          32.300
 125590286.016 6  97862514.57043  23899020.523                    23899033.063
        36.400          18.600
 114487648.667 7  89046051.889 7  21409739.734    21409739.816    21409748.738
        45.400          42.500
 123787402.043 6  96457710.27544  23555956.656                    23555969.301
        36.800          28.300
 117838519.971 7  91652213.356 6  22075127.836    22075126.699    22075136.125
        43.400          40.800
 117563659.824 7  91608027.19546  22371623.133                    22371632.359
        43.600          39.200
 110270221.337 7  85924915.45348  20983688.328                    20983698.641
        47.000          49.400
 120692980.318 6  93872390.370 6  22546453.148    22546452.629    22546463.297
        40.400          40.600
 109638376.504 7  85432569.65246  20863491.320                    20863497.895
        46.800          38.600
 133608381.32915                  25424846.867
        31.500
